{
  "results": [
    {
      "followersCount": 239405,
      "countryCode": "US",
      "twitterID": "BrittGastineau",
      "tweetContent": "Never Look Back \u2714\ufe0f @roberto_cavalli \ud83d\udcf8 eliastahan @ Burbank Bob Hope Airport (BUR) https://t.co/xjTCCrjSU6",
      "category": "TV&Internet Celebrity",
      "city": "Burbank",
      "name": "Brittny Gastineau",
      "longitude": 34.14263,
      "state": " CA",
      "time": "Wed Mar 18 21:22:30 +0000 2009",
      "latitude": -118.37032
    },
    {
      "followersCount": 707175,
      "countryCode": "US",
      "twitterID": "shawnemerriman",
      "tweetContent": "We just rocked it on bhlonline covering everything under the sun, guaranteed must see. Thanks\u2026 https://t.co/UVxAX0T8aT",
      "category": "Sport Star",
      "city": "Los Angeles",
      "name": "Shawne Merriman",
      "longitude": 33.704538,
      "state": " CA",
      "time": "Tue Feb 24 15:14:27 +0000 2009",
      "latitude": -118.668404
    },
    {
      "followersCount": 18426963,
      "countryCode": "US",
      "twitterID": "zaynmalik",
      "tweetContent": "#MindOfMine .. yours now !!!!\n\ud83d\udcc0 \ud83c\udfb5\ud83c\udfb6\ud83c\udfb6  https://t.co/aKiFddVIXz https://t.co/1mggMgBHcm",
      "category": "Musician",
      "city": "New York",
      "name": "Zayn Malik",
      "longitude": 40.495865,
      "state": " NY",
      "time": "Mon Aug 09 21:54:10 +0000 2010",
      "latitude": -74.255641
    },
    {
      "followersCount": 239406,
      "countryCode": "US",
      "twitterID": "BrittGastineau",
      "tweetContent": "Oklahoma, Villanova prove one thing: No. 2 seeds are for real https://t.co/polzekLYXl Kendrick",
      "category": "TV&Internet Celebrity",
      "city": "Paradise",
      "name": "Brittny Gastineau",
      "longitude": 35.984784,
      "state": " NV",
      "time": "Wed Mar 18 21:22:30 +0000 2009",
      "latitude": -115.209254
    }
  ]
}
